City_ID,City,Lat,Lng,Max Temp,Humidity,Cloudiness,Wind Speed,Country,Date
0,kodiak,57.79,-152.4072,6.73,45,0,5.14,US,1682375904
1,bethel,41.3712,-73.414,14.12,38,40,3.09,US,1682375904
2,kas,36.2018,29.6377,16.2,58,0,1.79,TR,1682375904
3,bilibino,68.0546,166.4372,-4.24,55,1,1.49,RU,1682375904
4,yellowknife,62.456,-114.3525,8.29,46,75,2.57,CA,1682375905
5,enewetak,11.3474,162.3373,26.26,86,100,7.63,MH,1682375905
6,polyarnyy,69.1989,33.4478,-6.81,82,5,4.9,RU,1682375905
7,stanley,54.868,-1.6985,2.06,83,0,3.09,GB,1682375905
8,cidreira,-30.1811,-50.2056,21.96,81,9,8.11,BR,1682375905
9,ribeira grande,38.5167,-28.7,17.1,94,47,6.71,PT,1682375906
10,grytviken,-54.2811,-36.5092,2.57,92,73,4.86,GS,1682375906
11,hamilton,39.1834,-84.5333,11.25,41,40,3.09,US,1682375730
12,whitehorse,60.7161,-135.0538,5.61,80,100,9.77,CA,1682375906
13,gadzhiyevo,69.2551,33.3362,-7.27,82,4,5.45,RU,1682375907
14,san ignacio de velasco,-16.3667,-60.95,21.7,97,39,1.73,BO,1682375907
15,kadugli,11.0167,29.7167,30.27,33,85,1.59,SD,1682375907
16,remire-montjoly,4.9167,-52.2667,24.02,100,0,1.03,GF,1682375907
17,minas de marcona,-15.2119,-75.1103,17.37,83,12,6.06,PE,1682375908
18,carnarvon,-24.8667,113.6333,18.99,67,97,7.45,AU,1682375908
19,puerto natales,-51.7236,-72.4875,5.78,91,87,3.19,CL,1682375908
20,dawei,14.0833,98.2,25.45,83,55,0.87,MM,1682375908
21,kavaratti,10.5669,72.642,28.03,71,58,2.64,IN,1682375909
22,mujiayingzi,42.1167,118.7833,8.25,59,100,5.24,CN,1682375909
23,adamstown,-25.066,-130.1015,25.62,86,98,6.69,PN,1682375909
24,turpan,42.9333,89.1667,17.15,16,28,0.52,CN,1682375909
25,santiago de cao,-7.9589,-79.2392,25.07,78,73,3.6,PE,1682375910
26,papatowai,-46.5619,169.4708,14.79,80,88,9.92,NZ,1682375910
27,afaahiti,-17.75,-149.2833,28.93,82,88,5.13,PF,1682375910
28,kodinsk,58.6881,99.1844,-0.19,89,100,1.49,RU,1682375910
29,bredasdorp,-34.5322,20.0403,14.82,84,2,2.19,ZA,1682375911
30,invercargill,-46.4,168.35,11.68,82,94,0.89,NZ,1682375734
31,holualoa,19.6228,-155.9522,25.99,77,40,4.12,US,1682375911
32,mosjoen,65.836,13.1908,-0.19,80,100,0.0,NO,1682375911
33,pachino,36.7186,15.0907,15.4,82,48,6.01,IT,1682375912
34,ushuaia,-54.8,-68.3,3.81,93,100,1.54,AR,1682375912
35,karbala,32.616,44.0249,20.92,65,17,3.56,IQ,1682375912
36,maksatikha,57.797,35.8825,10.97,65,52,1.87,RU,1682375912
37,mugia,43.1041,-9.2179,16.06,92,100,5.74,ES,1682375912
38,waitangi,-43.9535,-176.5597,12.68,66,67,2.68,NZ,1682375913
39,nacala,-14.5428,40.6728,20.75,92,0,2.88,MZ,1682375913
40,port-aux-francais,-49.35,70.2167,4.58,65,51,8.05,TF,1682375913
41,atafu village,-8.5421,-172.5159,29.29,71,68,4.66,TK,1682375742
42,las heras,-46.5419,-68.9359,16.17,28,65,12.15,AR,1682375913
43,mejit,10.2753,170.8646,27.19,81,93,9.66,MH,1682375914
44,nemuro,43.3236,145.575,5.01,67,13,7.59,JP,1682375914
45,astrakhan,46.3497,48.0408,13.93,77,93,2.0,RU,1682375914
46,warwick,41.7001,-71.4162,15.21,57,75,5.14,US,1682375914
47,shalqar,47.8333,59.6,12.5,49,63,4.28,KZ,1682375915
48,qarqaraly,49.4058,75.4742,2.25,79,11,1.58,KZ,1682375915
49,aasiaat,68.7098,-52.8699,-4.52,98,80,2.27,GL,1682375915
50,kashgar,39.4547,75.9797,16.56,23,0,5.0,CN,1682375915
51,grand falls-windsor,48.9332,-55.6649,2.5,93,100,0.45,CA,1682375916
52,slave lake,55.2834,-114.769,10.99,50,100,3.6,CA,1682375745
53,coronel marcelino mariduena,-2.2,-79.4167,25.28,90,92,0.97,EC,1682375916
54,college,64.8569,-147.8028,-4.4,49,75,5.14,US,1682375916
55,bamboo flat,11.7,92.7167,27.68,78,60,1.42,IN,1682375916
56,tanabe,33.7333,135.3667,10.56,92,100,1.31,JP,1682375917
57,prieska,-29.6641,22.7474,14.9,68,37,1.82,ZA,1682375917
58,chibougamau,49.9168,-74.3659,4.79,87,100,4.12,CA,1682375917
59,lucapa,-8.4192,20.7447,19.4,95,86,0.88,AO,1682375918
60,puerto maldonado,-12.6,-69.1833,28.22,74,0,0.0,PE,1682375637
61,tiksi,71.6872,128.8694,-6.0,94,100,5.9,RU,1682375918
62,blackmans bay,-43.0167,147.3167,13.07,84,100,2.71,AU,1682375918
63,fort st. john,56.2499,-120.8529,3.94,87,100,1.54,CA,1682375768
64,wailua homesteads,22.0669,-159.378,25.24,89,100,4.12,US,1682375919
65,fale old settlement,-9.3852,-171.2468,28.96,73,56,4.42,TK,1682375919
66,port elizabeth,-33.918,25.5701,17.95,94,20,3.09,ZA,1682375919
67,tisul',55.7611,88.3122,-0.07,92,100,7.48,RU,1682375920
68,tura,25.5198,90.2201,20.95,57,0,1.44,IN,1682375920
69,buldana,20.5333,76.1833,26.94,17,96,2.3,IN,1682375920
70,de aar,-30.6497,24.0123,16.05,33,55,2.61,ZA,1682375920
71,keflavik,64.0049,-22.5624,4.24,75,75,2.57,IS,1682375920
72,georgetown,5.4112,100.3354,25.96,94,20,1.03,MY,1682375921
73,kirensk,57.7853,108.1119,-1.08,81,100,0.91,RU,1682375921
74,sinabang,2.4803,96.3801,26.84,81,100,2.25,ID,1682375921
75,ribeira brava,32.65,-17.0667,18.73,75,99,1.13,PT,1682375921
76,nunkini,20.3333,-90.1833,31.29,40,100,3.8,MX,1682375922
77,bridgewater,44.3835,-64.5155,5.62,86,100,7.72,CA,1682375647
78,lompoc,34.6391,-120.4579,23.16,67,20,12.52,US,1682375922
79,annezin,50.5319,2.6178,8.34,87,77,2.52,FR,1682375922
80,kruisfontein,-34.0033,24.7314,15.77,90,79,2.68,ZA,1682375922
81,pingliang,35.5392,106.6861,6.75,64,1,2.66,CN,1682375923
82,arvayheer,46.2639,102.775,-2.67,49,18,4.73,MN,1682375923
83,usogorsk,63.4106,48.6872,6.02,93,73,4.23,RU,1682375923
84,avarua,-21.2078,-159.775,27.03,65,20,6.17,CK,1682375924
85,coquimbo,-29.9533,-71.3436,15.85,82,20,4.63,CL,1682375773
86,ust-nera,64.5667,143.2,-6.91,88,92,3.33,RU,1682375924
87,qaqortoq,60.7167,-46.0333,1.49,86,26,3.35,GL,1682375924
88,jiutepec,18.8667,-99.1833,32.86,22,75,1.54,MX,1682375853
89,mungaa,-4.9667,34.8833,15.31,96,91,1.03,TZ,1682375924
90,punta arenas,-53.15,-70.9167,6.06,87,75,10.29,CL,1682375925
91,puyang chengguanzhen,35.7028,115.0053,7.47,90,93,4.84,CN,1682375925
92,vilyuchinsk,52.9306,158.4028,4.15,74,36,2.08,RU,1682375925
93,wenchang,30.904,118.4887,11.3,89,100,1.51,CN,1682375925
94,srivardhan,18.0333,73.0167,25.69,78,53,1.9,IN,1682375926
95,margaret river,-33.95,115.0667,12.87,81,100,7.98,AU,1682375926
96,kingston,17.997,-76.7936,27.91,75,66,0.89,JM,1682375910
97,hermanus,-34.4187,19.2345,12.67,88,0,3.17,ZA,1682375926
98,westport,41.1415,-73.3579,14.85,46,20,2.57,US,1682375926
99,al qadarif,14.0349,35.3834,31.38,29,39,1.18,SD,1682375927
100,crane,31.3974,-102.3501,20.34,47,32,7.71,US,1682375927
101,pietermaritzburg,-29.6168,30.3928,16.9,66,97,1.85,ZA,1682375927
102,jamestown,42.097,-79.2353,6.77,64,75,5.66,US,1682375723
103,puerto armuelles,8.2833,-82.8667,30.99,71,19,2.75,PA,1682375708
104,albany,42.6001,-73.9662,11.76,53,89,2.59,US,1682375928
105,isafjordur,66.0755,-23.124,-0.95,64,86,3.98,IS,1682375928
106,constantia,44.1833,28.65,8.38,82,99,6.38,RO,1682375928
107,talnakh,69.4865,88.3972,-5.47,77,80,4.04,RU,1682375928
108,awjilah,29.1081,21.2869,22.43,41,99,4.24,LY,1682375929
109,laguna,38.421,-121.4238,27.73,33,0,3.6,US,1682375929
110,puerto rico,-26.796,-55.024,22.09,84,48,1.2,AR,1682375929
111,mabaruma,8.2,-59.7833,23.85,98,95,1.5,GY,1682375929
112,jinchang,38.4953,102.1739,7.79,35,0,3.24,CN,1682375930
113,poronaysk,49.2167,143.1167,5.26,56,63,2.8,RU,1682375930
114,iqaluit,63.7506,-68.5145,0.85,93,100,4.12,CA,1682375930
115,guerrero negro,27.9769,-114.0611,19.06,61,7,8.12,MX,1682375931
116,edinburgh of the seven seas,-37.0676,-12.3116,16.12,71,89,10.3,SH,1682375931
117,barra do garcas,-15.89,-52.2567,23.6,73,4,0.67,BR,1682375931
118,antalaha,-14.9003,50.2788,23.84,92,100,1.52,MG,1682375931
119,vavozh,56.7751,51.931,9.84,61,8,3.59,RU,1682375931
120,pokhara,28.2333,83.9833,16.35,44,64,2.6,NP,1682375932
121,quebo,11.3333,-14.9333,24.75,75,16,1.82,GW,1682375932
122,badger,64.8,-147.5333,-5.05,49,75,5.14,US,1682375721
123,puerto deseado,-47.7503,-65.8938,18.34,22,42,10.5,AR,1682375932
124,tosontsengel,48.7567,98.2839,-1.24,44,24,0.8,MN,1682375933
125,ghat,24.9647,10.1728,25.01,23,32,5.34,LY,1682375933
126,egilsstadir,65.2653,-14.3948,-2.05,74,75,5.14,IS,1682375933
127,dunedin,-45.8742,170.5036,15.04,45,87,8.0,NZ,1682375806
128,cabo san lucas,22.8909,-109.9124,31.17,32,20,2.57,MX,1682375934
129,bryne,58.7354,5.6477,5.52,82,75,9.77,NO,1682375934
130,lebu,-37.6167,-73.65,11.85,88,56,2.05,CL,1682375934
131,utrik,11.2278,169.8474,26.96,82,96,9.63,MH,1682375935
132,kerema,-7.9631,145.7785,28.16,76,55,0.57,PG,1682375935
133,west island,-12.1568,96.8225,26.99,74,40,10.29,CC,1682375935
134,fortuna,40.5982,-124.1573,15.52,71,93,3.13,US,1682375935
135,happy valley-goose bay,53.3168,-60.3315,9.17,53,75,3.09,CA,1682375936
136,santa terezinha,-29.9002,-50.0904,21.4,83,12,7.03,BR,1682375936
137,midvagur,62.0511,-7.1939,1.46,60,75,6.69,FO,1682375936
138,rongelap,11.1635,166.8941,26.99,83,96,8.36,MH,1682375936
139,zalingei,12.9096,23.4741,27.8,39,88,0.82,SD,1682375937
140,petropavlovsk-kamchatsky,53.0452,158.6483,3.33,52,75,2.0,RU,1682375937
141,jurm,36.8648,70.8342,14.27,40,99,2.07,AF,1682375937
142,nambucca heads,-30.65,153.0,20.0,75,100,2.45,AU,1682375937
143,lihue,21.9789,-159.3672,25.58,89,100,4.12,US,1682375938
144,iskateley,67.6803,53.1512,-10.13,97,99,1.56,RU,1682375938
145,deschutes river woods,43.9915,-121.3584,12.33,38,0,4.12,US,1682375938
146,lobito,-12.3481,13.5456,26.2,76,100,3.62,AO,1682375938
147,mana,5.6592,-53.7767,24.19,89,100,3.29,GF,1682375939
148,limuru,-1.1,36.65,14.85,93,93,1.69,KE,1682375939
149,la jagua de ibirico,9.5623,-73.3341,26.47,78,46,1.02,CO,1682375939
150,bikenibeu village,1.3673,173.1241,29.98,79,40,3.09,KI,1682375939
151,antofagasta,-23.65,-70.4,17.6,85,25,3.22,CL,1682375775
152,chonchi,-42.6128,-73.8092,11.73,88,100,2.36,CL,1682375940
153,tual,-5.6667,132.75,28.23,73,18,1.26,ID,1682375940
154,jayapura,-2.5333,140.7,26.66,88,79,2.04,ID,1682375940
155,outjo,-20.1167,16.15,20.22,67,42,3.14,NA,1682375941
156,klyuchi,52.2667,79.1667,3.0,54,24,3.77,RU,1682375941
157,xilin hot,43.9667,116.0333,-2.41,85,100,8.47,CN,1682375777
158,kailua-kona,19.6406,-155.9956,28.06,76,40,4.12,US,1682375941
159,waveland,30.2869,-89.3762,22.29,43,75,4.63,US,1682375942
160,pangai,-19.8,-174.35,28.06,69,20,1.03,TO,1682375942
161,saldanha,-33.0117,17.9442,15.03,91,37,2.02,ZA,1682375942
162,olonkinbyen,70.9221,-8.7187,-3.87,79,90,7.7,SJ,1682375942
163,anadyr,64.75,177.4833,-6.72,68,0,3.0,RU,1682375942
164,al jawf,29.5,38.75,20.39,27,1,5.61,SA,1682375943
165,lagunas,-5.2269,-75.6753,24.15,96,85,1.24,PE,1682375943
166,barcelos,41.5388,-8.6151,16.03,91,92,0.25,PT,1682375908
167,muisne,0.6,-80.0333,26.73,81,8,2.25,EC,1682375944
168,hasaki,35.7333,140.8333,14.56,50,43,4.71,JP,1682375944
169,yamada,39.4667,141.95,9.43,35,22,2.76,JP,1682375944
170,basco,20.4487,121.9702,24.95,76,95,6.82,PH,1682375944
171,sumter,28.7086,-82.0831,21.75,84,100,4.57,US,1682375945
172,greymouth,-42.4667,171.2,12.25,85,100,3.74,NZ,1682375945
173,terme,41.2092,36.9739,6.96,88,41,2.25,TR,1682375945
174,kanpur,26.4667,80.35,22.87,43,25,2.84,IN,1682375945
175,port mathurin,-19.6833,63.4167,25.84,83,100,8.48,MU,1682375946
176,colonia,50.9333,6.95,8.1,80,0,2.06,DE,1682375946
177,puerto ayora,-0.7393,-90.3518,29.98,86,95,4.47,EC,1682375946
178,harstad,68.799,16.5293,-1.32,76,9,0.45,NO,1682375946
179,new plymouth,-39.0667,174.0833,18.09,100,73,8.8,NZ,1682375823
180,susuman,62.7833,148.1667,-3.72,82,95,2.33,RU,1682375947
181,coron,11.9986,120.2043,27.59,77,12,1.17,PH,1682375947
182,touros,-5.1989,-35.4608,26.57,82,32,5.56,BR,1682375796
183,portrush,55.1959,-6.6493,6.94,61,11,2.68,GB,1682375947
184,sinop,41.7711,34.8709,5.35,91,4,3.52,TR,1682375948
185,nova sintra,14.8667,-24.7167,20.62,74,1,8.1,CV,1682375948
186,brisas de zicatela,15.8369,-97.0419,30.29,62,20,2.57,MX,1682375948
187,atar,20.5169,-13.0499,30.47,14,0,3.52,MR,1682375948
188,nuku'alofa,-21.1333,-175.2,27.19,69,40,1.54,TO,1682375949
189,taroa,8.7058,171.2275,27.71,80,81,9.78,MH,1682375949
190,hammerfest,70.6634,23.6821,-4.75,93,40,1.03,NO,1682375949
191,port alfred,-33.5906,26.891,18.99,94,100,1.34,ZA,1682375949
192,saint-philippe,-21.3585,55.7679,24.77,78,34,3.3,RE,1682375950
193,ancud,-41.8697,-73.8203,11.96,86,99,5.46,CL,1682375950
194,kapa'a,22.0752,-159.319,25.99,89,100,4.12,US,1682375941
195,isoka,-10.1606,32.6335,15.76,98,14,0.15,ZM,1682375950
196,borogontsy,62.6683,131.1683,-2.89,92,100,1.36,RU,1682375951
197,vorgashor,67.5833,63.95,-12.53,98,97,3.45,RU,1682375951
198,yeed,4.55,43.0333,26.39,75,99,5.82,SO,1682375951
199,saint-pierre,-21.3393,55.4781,26.43,78,0,2.06,RE,1682375952
200,saipan,15.1355,145.701,28.39,100,40,8.23,MP,1682375886
201,howrah,22.5892,88.3103,24.0,83,20,0.0,IN,1682375952
202,nanning,22.8167,108.3167,15.25,88,100,3.3,CN,1682375952
203,tolanaro,-25.0319,46.9987,20.9,86,0,2.85,MG,1682375952
204,ouadda,8.0777,22.4007,21.86,73,93,1.12,CF,1682375953
205,valdivia,-39.8142,-73.2459,12.05,97,93,1.06,CL,1682375953
206,hadibu,12.65,54.0333,27.54,71,9,1.08,YE,1682375953
207,n'zeto,-7.2312,12.8666,26.66,87,99,3.39,AO,1682375953
208,guiuan,11.0333,125.7247,27.54,77,88,4.08,PH,1682375954
209,carupano,10.6678,-63.2585,25.4,86,29,1.36,VE,1682375954
210,chinde,26.8418,88.0763,14.12,64,32,2.46,NP,1682375954
211,san patricio,28.017,-97.5169,23.24,75,56,5.1,US,1682375954
212,pisco,-13.7,-76.2167,25.03,69,0,10.8,PE,1682375955
213,longyearbyen,78.2186,15.6401,-10.09,73,0,4.12,SJ,1682375768
214,naze,28.3667,129.4833,20.51,83,88,6.63,JP,1682375798
215,la passe,45.5549,-0.8967,11.13,90,100,0.65,FR,1682375955
216,merizo village,13.2658,144.6691,27.77,95,21,7.99,GU,1682375956
217,prince rupert,54.3161,-130.3201,7.83,81,100,10.29,CA,1682375879
218,olinda,-8.0089,-34.8553,26.85,78,75,4.63,BR,1682375956
219,hilo,19.7297,-155.09,28.85,72,0,8.23,US,1682375917
220,hawaiian paradise park,19.5933,-154.9731,28.73,69,0,8.23,US,1682375957
221,puerto penasco,31.3167,-113.5333,22.73,61,0,3.13,MX,1682375957
222,al mutayrifi,25.4788,49.5576,25.19,37,53,2.73,SA,1682375957
223,greenville,35.6127,-77.3663,17.09,46,0,0.89,US,1682375910
224,suva,-18.1416,178.4415,27.71,74,75,2.06,FJ,1682375958
225,zhongshu,24.5167,103.7667,12.42,96,23,2.6,CN,1682375958
226,la ronge,55.1001,-105.2842,10.14,25,100,6.69,CA,1682375958
227,pedernales,18.0384,-71.744,25.8,79,44,2.13,DO,1682375958
228,mata-utu,-13.2816,-176.1745,28.55,72,99,3.43,WF,1682375959
229,bang saphan,11.2126,99.5117,24.48,89,78,1.41,TH,1682375959
230,glace bay,46.1969,-59.957,5.59,79,20,3.6,CA,1682375836
231,cockburn town,21.4612,-71.1419,25.46,73,12,5.38,TC,1682375910
232,kone,-21.0595,164.8658,27.22,66,80,2.37,NC,1682375960
233,sao jose da coroa grande,-8.8978,-35.1478,24.95,87,44,2.71,BR,1682375960
234,murray bridge,-35.1167,139.2667,21.18,54,53,4.43,AU,1682375960
235,plover,44.4564,-89.544,8.38,50,40,5.66,US,1682375852
236,roma,43.2128,-75.4557,9.73,62,40,4.12,US,1682375765
237,la libertad,-2.2333,-80.9,28.81,70,0,4.12,EC,1682375961
238,marovoay,-16.1,46.6333,23.66,89,7,0.93,MG,1682375961
239,alpena,45.0617,-83.4327,7.28,51,0,6.17,US,1682375962
240,kaduna,10.5222,7.4383,26.52,42,100,1.83,NG,1682375962
241,dom pedrito,-30.9828,-54.6731,20.01,49,21,2.39,BR,1682375962
242,maceio,-9.6658,-35.7353,25.69,88,100,1.54,BR,1682375769
243,laojunmiao,39.8333,97.7333,5.07,29,0,2.23,CN,1682375963
244,tepalcingo,18.6,-98.85,33.87,17,97,4.19,MX,1682375963
245,flin flon,54.7682,-101.865,6.91,29,40,3.6,CA,1682375963
246,caleta de carquin,-11.0925,-77.6267,24.45,78,24,6.84,PE,1682375963
247,gabu,12.2833,-14.2167,27.62,55,28,4.03,GW,1682375964
248,sydney mines,46.2367,-60.2177,6.56,77,20,3.6,CA,1682375964
249,port lincoln,-34.7333,135.8667,19.53,53,69,3.25,AU,1682375964
250,myeik,12.4333,98.6,25.54,85,77,1.5,MM,1682375964
251,ust'-barguzin,53.45,108.9833,-3.48,62,98,1.71,RU,1682375965
252,itaituba,-4.2761,-55.9836,29.09,79,40,0.0,BR,1682375965
253,taoudenni,22.6783,-3.9836,30.89,12,0,4.58,ML,1682375965
254,kousseri,12.0769,15.0306,28.98,42,90,2.06,CM,1682375966
255,puerto gaitan,4.3133,-72.0816,25.69,81,100,2.55,CO,1682375966
256,kittila,67.6647,24.8936,-5.92,73,0,1.03,FI,1682375966
257,victorica,-36.2151,-65.4359,17.48,46,51,4.85,AR,1682375966
258,yarmouth,41.7057,-70.2286,12.01,87,100,3.6,US,1682375834
259,ed damer,17.5928,33.9592,30.97,16,26,4.17,SD,1682375967
260,kentau,43.5206,68.5094,14.94,43,2,11.42,KZ,1682375967
261,mangai,-4.05,19.5333,21.41,93,80,0.43,CD,1682375967
262,ocean shores,46.9737,-124.1563,12.99,77,0,5.66,US,1682375968
263,dabola,10.75,-11.1167,29.37,29,14,1.3,GN,1682375968
264,ketchikan,55.3422,-131.6461,8.26,71,100,6.69,US,1682375968
265,dongobesh,-4.0667,35.3833,13.12,97,97,0.91,TZ,1682375968
266,nadi,-17.8,177.4167,28.0,69,75,2.57,FJ,1682375969
267,st. john's,47.5649,-52.7093,2.38,96,100,8.94,CA,1682375969
268,tazovsky,67.4667,78.7,-9.55,96,97,3.67,RU,1682375969
269,kayyerkan,69.3786,87.7439,-6.25,84,85,4.77,RU,1682375969
270,guantanamo,20.1444,-75.2092,27.76,62,67,1.45,CU,1682375970
271,haiku-pauwela,20.9219,-156.3051,27.01,54,40,4.12,US,1682375970
272,codrington,-38.2667,141.9667,17.41,69,46,4.71,AU,1682375970
273,kievka,50.2619,71.5514,5.82,63,7,1.26,KZ,1682375971
274,oranjemund,-28.55,16.4333,16.31,98,83,2.87,NA,1682375971
275,cambria,35.5641,-121.0808,28.57,58,48,7.11,US,1682375971
276,flying fish cove,-10.4217,105.6791,26.95,79,97,6.2,CX,1682375971
277,lensk,60.7253,114.9278,-2.28,87,65,0.34,RU,1682375972
278,noyabrsk,63.1994,75.4507,-5.0,86,99,8.24,RU,1682375972
279,port augusta,-32.5,137.7667,21.3,41,55,2.1,AU,1682375972
280,as sulayyil,20.4607,45.5779,26.14,38,97,6.07,SA,1682375972
281,puerto baquerizo moreno,-0.9,-89.6,27.55,78,40,4.12,EC,1682375973
282,shijiazhuang,38.0414,114.4786,6.92,68,56,1.79,CN,1682375973
283,brookings,44.3114,-96.7984,11.21,41,0,3.6,US,1682375973
284,sabang,5.8933,95.3214,29.25,74,100,5.64,ID,1682375973
285,sisimiut,66.9395,-53.6735,0.28,93,100,1.69,GL,1682375974
286,panorama,40.5878,23.0315,13.57,78,20,0.0,GR,1682375974
287,motueka,-41.1333,173.0167,16.17,49,30,2.33,NZ,1682375974
288,gaspe,48.8334,-64.4819,4.12,81,75,0.0,CA,1682375974
289,prymors'k,46.7348,36.3443,11.39,92,100,1.72,UA,1682375975
290,vuktyl,63.8567,57.3094,1.6,96,100,6.39,RU,1682375975
291,peace river,56.2501,-117.286,14.17,41,100,1.54,CA,1682375874
292,urubamba,-13.3047,-72.1158,21.5,80,47,2.16,PE,1682375975
293,praia da vitoria,38.7333,-27.0667,18.2,77,40,5.12,PT,1682375976
294,bata,1.8639,9.7658,26.92,100,40,2.57,GQ,1682375976
295,vadso,70.0744,29.7487,-2.51,80,0,5.66,NO,1682375976
296,sulak,43.2734,47.5146,13.88,76,100,4.89,RU,1682375976
297,thompson,55.7435,-97.8558,6.09,33,20,2.06,CA,1682375976
298,ta`u,-14.2336,-169.5144,27.9,75,35,4.47,AS,1682375977
299,sao joao da barra,-21.6403,-41.0511,23.05,80,65,3.19,BR,1682375977
300,chongwe,-15.3292,28.682,17.13,54,88,0.89,ZM,1682375977
301,dudinka,69.4058,86.1778,0.77,77,100,8.04,RU,1682375977
302,porto novo,6.4965,2.6036,28.9,79,100,2.39,BJ,1682375978
303,kotel'va,50.0686,34.7586,9.31,73,89,1.05,UA,1682375978
304,tirano,46.2154,10.1679,6.24,82,11,3.01,IT,1682375978
305,vernon,50.2581,-119.2691,16.07,50,99,4.02,CA,1682375714
306,acarau,-2.8856,-40.12,25.68,82,85,3.92,BR,1682375907
307,bodo,67.28,14.405,-0.98,64,0,5.14,NO,1682375979
308,ilulissat,69.2167,-51.1,1.01,93,40,3.6,GL,1682375979
309,todos santos,23.45,-110.2167,20.25,75,91,3.28,MX,1682375979
310,daru,-9.0763,143.2092,27.41,86,100,6.15,PG,1682375980
311,wajir,1.7471,40.0573,25.49,83,90,4.07,KE,1682375980
312,puerto aysen,-45.4,-72.7,9.97,97,100,2.21,CL,1682375819
313,bressanone,46.715,11.656,6.22,92,5,1.51,IT,1682375980
314,lepsy,46.235,78.9456,10.16,70,40,7.01,KZ,1682375980
315,mpongwe,-13.5091,28.155,16.1,74,10,2.35,ZM,1682375981
316,kalemie,-5.9475,29.1947,20.92,92,100,2.52,CD,1682375981
317,sanctuary point,-35.1114,150.629,20.18,68,2,2.44,AU,1682375981
318,lyskovo,56.0328,45.0422,10.15,73,14,3.26,RU,1682375981
319,chernyshevskiy,63.0128,112.4714,-9.43,96,90,0.74,RU,1682375982
320,margate,51.3813,1.3862,6.61,79,100,3.13,GB,1682375982
321,toguchin,55.2353,84.3858,-1.13,76,92,7.61,RU,1682375982
322,ouallam,14.3188,2.0866,32.83,12,37,4.35,NE,1682375982
323,iwon-up,40.3231,128.6553,9.62,61,100,0.07,KP,1682375982
324,drayton valley,53.2168,-114.9854,9.91,62,96,4.67,CA,1682375983
325,amos,48.5669,-78.1162,2.7,88,100,2.93,CA,1682375778
326,bandar-e anzali,37.4727,49.4622,16.06,77,92,0.25,IR,1682375983
327,mil'kovo,55.6078,37.7956,14.22,68,39,1.79,RU,1682375983
328,swan hill,-35.3378,143.5544,19.02,53,0,3.52,AU,1682375984
329,morrope,-6.5417,-80.0111,27.06,70,100,4.76,PE,1682375984
330,wewak,-3.5534,143.6268,28.07,81,100,2.87,PG,1682375984
331,cruzeiro do sul,-29.5128,-51.9853,21.71,78,0,1.11,BR,1682375984
332,mwinilunga,-11.7358,24.4293,15.99,80,96,1.49,ZM,1682375984
333,nema,57.5067,50.5011,9.64,68,27,2.81,RU,1682375985
334,severo-yeniseyskiy,60.3725,93.0408,-0.7,96,100,1.78,RU,1682375985
335,yandev,7.3667,9.05,29.22,56,64,0.99,NG,1682375985
336,amga,60.8953,131.9608,-2.15,89,100,2.76,RU,1682375985
337,chinchilla,-26.75,150.6333,20.27,62,28,10.19,AU,1682375986
338,pitimbu,-7.4706,-34.8086,26.33,83,29,4.26,BR,1682375986
339,nadym,65.5333,72.5167,-5.22,82,99,9.65,RU,1682375986
340,santa cruz,-17.8,-63.1667,27.7,69,20,2.06,BO,1682375695
341,kourou,5.1552,-52.6478,24.03,94,100,2.94,GF,1682375986
342,berdigestyakh,62.0989,126.6992,-3.83,94,100,4.41,RU,1682375987
343,hengchun,22.0042,120.7439,24.19,80,18,5.54,TW,1682375987
344,udachny,66.4167,112.4,-7.47,100,100,2.93,RU,1682375987
345,port blair,11.6667,92.75,27.71,78,57,1.44,IN,1682375987
346,hithadhoo,-0.6,73.0833,28.89,75,100,4.44,MV,1682375987
347,altamira,-3.2033,-52.2064,23.52,97,100,1.17,BR,1682375988
348,arno,60.1167,18.6333,0.44,88,100,4.13,SE,1682375988
349,lawrenceburg,38.0373,-84.8966,12.64,36,0,2.68,US,1682375988
350,yampil',51.95,33.7833,8.48,83,43,2.77,UA,1682375988
351,port saint john's,-31.6229,29.5448,21.03,74,99,3.03,ZA,1682375989
352,thomaston,32.8882,-84.3266,20.88,39,100,2.06,US,1682375989
353,alice springs,-23.7,133.8833,11.75,87,0,4.59,AU,1682375989
354,burhanuddin,22.4918,90.7235,26.23,61,33,3.68,BD,1682375989
355,klamath falls,42.2249,-121.7817,15.48,34,20,4.63,US,1682375820
356,kavieng,-2.5744,150.7967,28.87,75,38,4.45,PG,1682375990
357,belmonte,-15.8631,-38.8828,23.81,88,98,4.68,BR,1682375990
358,berezovyy,51.6667,135.7,3.96,42,22,2.05,RU,1682375990
359,antigonish,45.6169,-61.9986,5.08,92,10,1.82,CA,1682375991
360,midelt,32.6852,-4.7451,18.81,34,0,1.08,MA,1682375991
361,qobustan,40.0824,49.412,17.73,62,100,1.6,AZ,1682375991
362,colonia menno,-22.3667,-59.8167,21.04,71,68,3.99,PY,1682375991
363,mount gambier,-37.8333,140.7667,16.49,65,79,3.06,AU,1682375991
364,sars,56.5502,57.1366,7.75,71,14,2.53,RU,1682375992
365,palikir - national government center,6.9248,158.1611,28.47,79,75,5.14,FM,1682375992
366,ugoofaaru,5.6667,73.0,29.01,68,100,3.08,MV,1682375992
367,tabarka,36.9544,8.758,13.36,94,0,0.0,TN,1682375993
368,vogan,6.3333,1.5333,27.9,79,100,2.83,TG,1682375993
369,changji,44.0167,87.3167,13.44,30,0,1.0,CN,1682375993
370,morondava,-20.2833,44.2833,23.02,80,0,3.56,MG,1682375993
371,brigantine,39.4101,-74.3646,16.11,42,0,5.66,US,1682375993
372,ellensburg,46.9965,-120.5479,17.19,45,0,11.83,US,1682375994
373,bokoro,12.3807,17.0568,29.64,47,88,4.43,TD,1682375994
374,kayangel,8.0823,134.7173,28.02,71,8,2.11,PW,1682375994
375,mantua,45.1667,10.7833,13.58,83,69,3.58,IT,1682375994
376,chihuahua,28.5,-106.0,28.46,6,6,11.02,MX,1682376016
377,la belgica,-17.55,-63.2167,28.16,69,20,1.03,BO,1682376016
378,kati,12.7441,-8.0726,29.67,16,4,1.05,ML,1682376016
379,ouled mimoun,34.9047,-1.0339,14.01,64,1,0.92,DZ,1682376017
380,mengyin,35.7069,117.9264,10.44,69,96,3.22,CN,1682376017
381,walvis bay,-22.9575,14.5053,18.53,77,0,3.09,NA,1682376017
382,concepcion,-36.827,-73.0498,11.89,87,100,1.54,CL,1682376017
383,tidjikja,18.5564,-11.4271,30.25,13,1,3.85,MR,1682376018
384,arraial do cabo,-22.9661,-42.0278,22.98,78,75,1.54,BR,1682376018
385,nukus,42.4531,59.6103,16.99,27,0,5.14,UZ,1682376018
386,shirgaon,19.7,72.7,26.7,73,100,0.33,IN,1682376018
387,maragogi,-9.0122,-35.2225,24.53,88,55,2.43,BR,1682375776
388,ulsteinvik,62.3432,5.8487,3.28,78,100,7.15,NO,1682376019
389,savanna-la-mar,18.219,-78.1332,27.97,74,81,0.6,JM,1682376019
390,pacific grove,36.6177,-121.9166,23.55,71,0,5.66,US,1682376020
391,altinyayla,39.2725,36.751,4.51,72,4,1.62,TR,1682376020
392,zhanaozen,43.3,52.8,20.01,25,71,13.64,KZ,1682376020
393,uturoa,-16.7333,-151.4333,27.12,79,24,4.59,PF,1682376020
394,tofol,5.3248,163.0078,26.88,89,100,3.66,FM,1682376021
395,poltavka,54.3663,71.7632,5.42,40,89,2.32,RU,1682376021
396,asyqata,40.8994,68.3611,15.72,53,44,2.98,KZ,1682376021
397,fada,9.5667,8.3,23.7,48,96,0.61,NG,1682376022
398,vryburg,-26.9566,24.7284,16.96,51,100,2.07,ZA,1682376022
399,maicao,11.3832,-72.2432,28.15,57,95,4.75,CO,1682376022
400,megion,61.0296,76.1136,-3.99,86,51,6.17,RU,1682376023
401,santo domingo petapa,16.8181,-95.1403,29.47,58,77,1.65,MX,1682376023
402,korhogo,9.45,-5.6333,27.9,54,100,3.02,CI,1682376023
403,mount sterling,38.0565,-83.9433,12.39,43,0,2.06,US,1682376023
404,vanimo,-2.6741,141.3028,27.42,83,83,1.88,PG,1682376024
405,saint-denis,48.9167,2.3333,9.31,89,75,2.06,FR,1682376024
406,seven pagodas,12.6264,80.1722,29.47,80,70,4.64,IN,1682376024
407,mordovo,52.0834,40.77,10.84,83,87,3.03,RU,1682376024
408,kargil,34.5667,76.1,-4.41,47,0,1.97,IN,1682376024
409,nuuk,64.1835,-51.7216,3.34,87,100,4.63,GL,1682376025
410,fismes,49.3077,3.6861,7.13,93,100,0.43,FR,1682376025
411,lorengau,-2.0226,147.2712,28.4,80,90,3.53,PG,1682376025
412,coahuayana de hidalgo,18.7,-103.6583,29.02,56,68,2.89,MX,1682376025
413,pelabuhanratu,-6.9875,106.5514,25.65,86,85,1.3,ID,1682376026
414,aulnoye-aymeries,50.2014,3.8384,6.97,91,94,1.74,FR,1682376026
415,kidal,18.4411,1.4078,29.55,11,0,3.47,ML,1682376026
416,quellon,-43.1167,-73.6167,12.14,87,100,4.63,CL,1682376026
417,puerto ayacucho,5.6639,-67.6236,24.99,88,100,1.81,VE,1682376027
418,nizhnesortymskiy,62.4397,71.7603,-5.86,88,6,6.3,RU,1682376027
419,abepura,-2.6333,140.5833,26.45,83,40,0.0,ID,1682376027
420,siverskiy,59.3544,30.0783,11.68,70,84,2.75,RU,1682376028
421,harper,4.375,-7.7169,27.33,85,100,2.84,LR,1682376028
422,kaiyuan,23.6977,103.3037,17.98,81,25,2.28,CN,1682376028
423,san sebastian de la gomera,28.0916,-17.1133,20.2,77,0,2.57,ES,1682376028
424,queenstown,-31.8976,26.8753,14.16,62,100,0.71,ZA,1682376029
425,cururupu,-1.8283,-44.8683,24.5,87,97,1.79,BR,1682376050
426,al ghayzah,16.2079,52.176,27.76,73,33,3.07,YE,1682376050
427,chapaev,50.2,51.1667,13.63,80,100,6.18,KZ,1682376050
428,ca mau,9.1769,105.15,26.77,81,69,1.85,VN,1682375901
429,liwale,-9.7667,37.9333,20.51,98,88,1.65,TZ,1682376051
430,topeka,39.0483,-95.678,19.88,33,40,7.2,US,1682375764
431,kirkwall,58.9848,-2.9587,3.03,75,40,8.23,GB,1682376051
432,danilovka,50.3557,44.1168,11.89,91,100,4.43,RU,1682376051
433,catacocha,-4.0667,-79.6333,19.16,93,99,0.8,EC,1682376052
434,'ain el hadjar,34.7585,0.1453,15.28,54,0,1.91,DZ,1682376052
435,hancheng,32.5186,112.3522,8.13,89,100,2.74,CN,1682376052
436,yuzhno-kurilsk,44.0306,145.8556,6.27,50,6,5.67,RU,1682376052
437,khao wong,16.7001,104.0902,25.69,61,9,1.31,TH,1682376053
438,la serena,-29.9078,-71.2542,15.73,82,20,4.63,CL,1682375951
439,petrolina,-9.3986,-40.5008,28.03,54,20,2.57,BR,1682376053
440,nar'yan-mar,67.6713,53.087,-9.97,97,99,1.54,RU,1682376053
441,dwarka,22.2394,68.9678,26.06,82,62,5.59,IN,1682376053
442,itamaraca,-7.7478,-34.8256,27.03,84,61,3.63,BR,1682376054
443,yeniseysk,58.4497,92.1703,2.25,90,98,2.84,RU,1682376054
444,funafuti,-8.5243,179.1942,32.0,74,40,0.51,TV,1682376054
445,sangin,32.0728,64.8359,23.69,8,54,1.46,AF,1682376054
446,puerto el triunfo,13.2833,-88.55,33.48,64,92,3.16,SV,1682375982
447,richards bay,-28.783,32.0377,21.83,74,100,4.76,ZA,1682376055
448,raja,8.4596,25.678,25.46,62,95,1.73,SS,1682376055
449,vohibinany,-17.35,49.0333,21.31,96,2,1.53,MG,1682376055
450,coronel suarez,-37.4547,-61.9334,15.51,58,48,2.83,AR,1682376055
451,bardai,11.65,7.2333,27.98,33,100,1.63,NG,1682376056
452,boa vista,2.8197,-60.6733,27.99,74,75,2.57,BR,1682375891
453,ola,59.5833,151.2833,5.08,79,98,8.34,RU,1682376056
454,behshahr,36.6923,53.5526,16.67,70,76,2.46,IR,1682376056
455,gurupi,-11.7292,-49.0686,25.1,64,17,1.1,BR,1682376057
456,kenora,49.8167,-94.4337,4.54,41,75,3.09,CA,1682376057
457,luderitz,-26.6481,15.1594,16.89,86,0,3.84,NA,1682376057
458,san pedro pochutla,15.7333,-96.4667,31.51,56,56,3.39,MX,1682376057
459,phitsanulok,16.9167,100.5,25.06,54,2,1.76,TH,1682376057
460,manakara,-22.1333,48.0167,21.92,85,0,3.21,MG,1682376058
461,todaraisingh,26.0167,75.4833,23.76,31,99,3.16,IN,1682376058
462,spisska nova ves,48.9446,20.5615,9.55,98,100,0.77,SK,1682376058
463,sitka,57.0531,-135.33,3.94,81,100,5.66,US,1682376058
464,antsohihy,-14.8796,47.9875,23.44,97,43,1.12,MG,1682376058
465,masuda,34.6667,131.85,9.88,71,100,2.43,JP,1682376059
466,usinsk,65.9939,57.5281,-3.01,97,100,3.39,RU,1682376059
467,tyazhinskiy,56.116,88.524,-0.38,90,98,7.99,RU,1682376059
468,gujba,11.5032,11.9367,28.16,54,99,3.0,NG,1682376059
469,callao,-12.0667,-77.15,26.16,65,0,6.69,PE,1682375773
470,bom jesus,-9.0744,-44.3586,27.18,37,47,1.61,BR,1682376060
471,axim,4.8699,-2.2405,27.53,83,95,2.79,GH,1682376060
472,makhambet,47.6667,51.5833,18.86,33,100,11.77,KZ,1682376060
473,patterson,37.4716,-121.1297,27.79,27,42,4.27,US,1682376061
474,knyaze-volkonskoye,48.4642,135.4567,6.19,39,97,4.76,RU,1682376061
475,antsiranana,-12.2787,49.2917,24.75,89,99,1.36,MG,1682376061
476,morehead,37.2711,-87.1764,13.86,26,0,1.54,US,1682376061
477,at taj,24.2049,23.2857,26.64,20,22,9.34,LY,1682376062
478,chegdomyn,51.1167,133.0167,2.34,56,75,2.69,RU,1682376062
479,santa rosa del sur,7.9644,-74.0544,22.66,88,63,1.29,CO,1682376062
480,novo aripuana,-5.1206,-60.3797,23.98,96,89,0.97,BR,1682376063
481,fort bragg,35.139,-79.006,19.39,41,0,2.06,US,1682375819
482,fuglafjordur,62.244,-6.814,1.26,62,100,8.43,FO,1682376063
483,nouadhibou,20.931,-17.0347,18.99,82,0,8.23,MR,1682376063
484,arteche,12.2645,125.4048,26.32,86,71,3.2,PH,1682376064
485,the pas,53.8251,-101.2541,6.01,39,0,5.14,CA,1682376064
486,el granada,37.5027,-122.4694,23.6,65,20,12.86,US,1682376065
487,manay,7.215,126.5397,27.42,73,60,2.14,PH,1682376065
488,alofi,-19.0595,-169.9187,27.94,74,75,3.6,NU,1682376065
489,aquidauana,-20.4711,-55.7872,22.38,93,30,1.44,BR,1682376066
490,thourotte,49.4759,2.8821,9.35,93,97,0.96,FR,1682376066
491,chegutu,-18.1302,30.1407,16.15,58,66,1.67,ZW,1682376066
492,torres,-29.3353,-49.7269,21.57,91,56,3.44,BR,1682376067
493,talalayivka,50.9578,31.9209,9.05,79,51,2.8,UA,1682376067
494,amble,55.3333,-1.5833,4.08,76,20,3.6,GB,1682376067
495,slupsk,54.4641,17.0287,10.81,92,100,5.44,PL,1682376067
496,rio grande,-32.035,-52.0986,22.06,84,19,8.05,BR,1682375903
497,caraballeda,10.6112,-66.8522,29.04,61,71,2.57,VE,1682376068
498,beledweyne,4.7358,45.2036,27.27,75,74,5.98,SO,1682376068
499,san antonio de pale,-1.4014,5.6325,28.23,70,59,0.61,GQ,1682376068
500,naha,26.2125,127.6811,22.95,80,75,3.6,JP,1682376068
501,tot'ma,59.9747,42.7642,8.37,74,14,2.8,RU,1682376069
502,serang,-6.1149,106.1502,25.31,89,92,1.66,ID,1682376069
503,webster,42.0501,-71.8801,14.27,54,88,1.97,US,1682376069
504,vila velha,-20.3297,-40.2925,23.97,87,0,2.57,BR,1682376069
505,pointe-noire,-4.7761,11.8635,26.94,86,85,0.64,CG,1682376070
506,suining,30.508,105.5733,10.32,86,99,0.99,CN,1682376070
507,esquel,-42.9,-71.3167,10.67,72,97,3.16,AR,1682375830
508,gereida,11.2811,25.1414,29.08,41,47,3.3,SD,1682376070
509,kudahuvadhoo,2.6708,72.8944,28.36,77,99,3.19,MV,1682376071
510,newman,37.3138,-121.0208,27.91,27,36,3.13,US,1682376071
511,monrovia,6.3005,-10.7969,23.87,82,69,2.89,LR,1682375803
512,ust-tsilma,65.441,52.1498,-1.05,98,100,2.51,RU,1682376071
513,angaur state,6.906,134.13,28.22,73,13,2.88,PW,1682376072
514,tazacorte,28.629,-17.9293,19.54,88,40,4.12,ES,1682376072
515,castlegar,49.2998,-117.6689,13.38,99,100,1.05,CA,1682376072
516,hotan,37.0997,79.9269,15.65,16,0,3.22,CN,1682376072
517,campo gallo,-26.5833,-62.85,17.18,83,84,1.98,AR,1682376073
518,buta,2.7858,24.73,21.43,89,97,1.19,CD,1682376073
519,la sarre,48.8002,-79.1996,1.7,91,100,3.35,CA,1682375968
520,mbandaka,0.0487,18.2603,23.41,82,97,1.72,CD,1682376073
521,tsiombe,-25.3,45.4833,19.2,88,0,1.71,MG,1682376073
522,nogliki,51.8333,143.1667,2.49,72,89,5.99,RU,1682376074
523,la union,-5.4,-80.75,28.58,60,100,4.53,PE,1682376074
524,zacualtipan,20.65,-98.6,16.43,86,82,2.41,MX,1682376074
525,luganville,-15.5333,167.1667,28.18,73,85,3.12,VU,1682376074
526,howard springs,-12.497,131.047,27.15,89,35,3.97,AU,1682376074
527,botshabelo,-29.2702,26.7052,19.65,26,100,2.52,ZA,1682376075
528,kerikeri,-35.2268,173.9474,18.28,76,3,0.89,NZ,1682376075
529,freetown,8.484,-13.2299,26.84,78,20,5.66,SL,1682376075
530,san javier,37.8063,-0.8374,18.15,81,0,1.79,ES,1682376075
531,sao vicente,-23.9631,-46.3919,24.99,26,16,0.89,BR,1682376076
532,agbabu,6.5886,4.8343,26.06,86,100,1.18,NG,1682376076
533,shush,32.1942,48.2436,26.01,41,100,3.15,IR,1682376076
534,lengshuitan,26.4111,111.5956,10.65,91,100,1.28,CN,1682376077
535,mildura,-34.2,142.15,20.47,42,11,3.88,AU,1682376077
536,lincoln city,44.9582,-124.0179,14.47,84,84,3.58,US,1682376077
537,ekibastuz,51.6667,75.3667,4.55,55,14,2.4,KZ,1682376077
538,aksaray,38.3726,34.0254,9.53,46,2,1.65,TR,1682376078
539,weno,7.4515,151.8468,28.97,84,100,1.54,FM,1682376078
540,port lavaca,28.615,-96.6261,22.39,84,100,4.63,US,1682376078
541,patu,-6.11,-37.6367,26.55,66,94,2.76,BR,1682376078
542,noosa heads,-26.3833,153.15,23.39,63,64,9.39,AU,1682376079
543,inhambane,-23.865,35.3833,21.81,79,12,1.98,MZ,1682376079
544,kariong,-33.44,151.3011,17.67,59,96,0.91,AU,1682376079
545,geraldton,-28.7667,114.6,13.23,88,75,1.54,AU,1682376079
546,faya-largeau,17.9257,19.1043,33.46,6,100,3.98,TD,1682376080
547,kapuskasing,49.4169,-82.4331,0.05,74,100,4.63,CA,1682376080
548,salekhard,66.53,66.6019,-7.2,87,24,4.59,RU,1682376080
549,sibirskiy,53.5777,83.7577,2.44,81,100,5.79,RU,1682376080
550,north battleford,52.7834,-108.2847,12.05,32,40,11.83,CA,1682376063
551,sechura,-5.5569,-80.8222,27.91,63,100,4.68,PE,1682376081
552,porto seguro,-16.4497,-39.0647,23.29,94,75,1.54,BR,1682375929
553,dalbandin,28.8947,64.4101,24.65,24,100,3.21,PK,1682376081
554,hami,42.8,93.45,12.61,19,6,1.6,CN,1682375954
555,auki,-8.7676,160.7034,28.94,71,44,0.73,SB,1682376082
556,payson,40.0444,-111.7321,14.71,41,75,2.57,US,1682376015
557,christchurch,-43.5333,172.6333,15.51,65,14,2.06,NZ,1682376082
558,ponta delgada,37.7333,-25.6667,17.4,100,75,3.6,PT,1682376083
559,rikaze,29.25,88.8833,1.37,51,77,1.73,CN,1682376083
560,new norfolk,-42.7826,147.0587,13.73,76,100,1.9,AU,1682376083
561,at taraf,25.3628,49.725,25.3,36,47,3.13,SA,1682376083
562,baruun-urt,46.6806,113.2792,-2.98,63,18,2.01,MN,1682376084
563,souillac,-20.5167,57.5167,24.21,94,20,1.54,MU,1682376084
564,namibe,-15.1961,12.1522,23.54,71,52,2.82,AO,1682376084
565,lucon,46.4577,-1.1651,12.05,93,100,3.07,FR,1682376084
566,burley,42.5357,-113.7928,12.98,37,75,8.75,US,1682376085
567,galliano,29.4422,-90.2992,23.0,46,0,4.63,US,1682376085
568,mormugao,15.4,73.8,24.39,82,1,1.72,IN,1682376085
569,mahanje,-9.9333,35.3333,17.5,97,10,1.02,TZ,1682376085
570,bruay-sur-l'escaut,50.3992,3.5438,9.06,95,86,2.41,FR,1682376086
571,filey,54.21,-0.2892,5.99,77,79,8.24,GB,1682376086
572,rabo de peixe,37.8,-25.5833,16.73,100,75,3.6,PT,1682376086
573,kyshtovka,56.555,76.6271,-1.07,74,3,3.23,RU,1682376086
574,mariental,-24.6333,17.9667,17.0,75,0,3.2,NA,1682376087
575,ixtapa,20.7,-105.2,26.57,65,75,6.17,MX,1682376087
